[{"id": "espaco-de-cinema-augusta", "name": "Espaço de Cinema – Augusta", "url": "https://www.ingresso.com/cinema/espaco-de-cinema-augusta", "address": "R. Augusta, 1475 - Cerqueira César, São Paulo", "coordinates": ["-23.5565959", "-46.6584279"]}, {"id": "cine-araujo-campo-limpo", "name": "Cine Araújo Campo Limpo", "url": "https://www.ingresso.com/cinema/cine-araujo-campo-limpo", "address": "Estrada de campo limpo, 459 - Santo Amaro, São Paulo", "coordinates": ["-23.6490159", "-46.7567774"]}, {"id": "cineflix-cantareira", "name": "Cineflix Cantareira", "url": "https://www.ingresso.com/cinema/cineflix-cantareira", "address": "Av. Raimundo Pereira de Magalhães, 11001 - são joão, São Paulo", "coordinates": ["-23.4440854", "-46.722545"]}, {"id": "cinema-belas-artes", "name": "Cinema Belas Artes", "url": "https://www.ingresso.com/cinema/cinema-belas-artes", "address": "Rua da Consolação, 2423 - Consolação, São Paulo", "coordinates": ["-23.555668", "-46.6622988"]}, {"id": "cinema-reserva-cultural-sao-paulo", "name": "Cinema Reserva Cultural São Paulo", "url": "https://www.ingresso.com/cinema/cinema-reserva-cultural-sao-paulo", "address": "Av. Paulista, 900 - Bela Vista, São Paulo", "coordinates": ["-23.5655068", "-46.651246"]}, {"id": "cinemark-aricanduva", "name": "Cinemark Aricanduva", "url": "https://www.ingresso.com/cinema/cinemark-aricanduva", "address": "Av. Aricanduva / Salas 1 a 8 - Interlar Aricanduva / Salas 9 a 14 - Shopping Aricanduva corredor Auto Shopping, 5555 - Vila Matilde, São Paulo", "coordinates": ["-23.5655384", "-46.5020783"]}, {"id": "cinemark-boulevard-tatuape", "name": "Cinemark Boulevard Tatuapé", "url": "https://www.ingresso.com/cinema/cinemark-boulevard-tatuape", "address": "R. Gonçalves Crespo, S/N - Tatuapé, São Paulo", "coordinates": ["-23.5390007", "-46.5758726"]}, {"id": "cinemark-center-norte", "name": "Cinemark Center Norte", "url": "https://www.ingresso.com/cinema/cinemark-center-norte", "address": "Travessa Casalbuono, 127 - Vila Guilherme, São Paulo", "coordinates": ["-23.5158024", "-46.6172142"]}, {"id": "cinemark-central-plaza", "name": "Cinemark Central Plaza", "url": "https://www.ingresso.com/cinema/cinemark-central-plaza", "address": "Av. Dr. Francisco Mesquita, 1000 - Ipiranga, São Paulo", "coordinates": ["-23.5935619", "-46.585806"]}, {"id": "cinemark-cidade-jardim-vip", "name": "Cinemark Cidade Jardim VIP", "url": "https://www.ingresso.com/cinema/cinemark-cidade-jardim-vip", "address": "Av. Magalhães de Castro, 12000 - Morumbi, São Paulo", "coordinates": ["-23.5989908", "-46.6976424"]}, {"id": "cinemark-eldorado", "name": "Cinemark Eldorado", "url": "https://www.ingresso.com/cinema/cinemark-eldorado", "address": "Av. Rebouças, 3970 - Pinheiros, São Paulo", "coordinates": ["-23.5726311", "-46.6956737"]}, {"id": "cinemark-lar-center", "name": "Cinemark Lar Center", "url": "https://www.ingresso.com/cinema/cinemark-lar-center", "address": "Av. Otto Baumgart - Shopping Lar Center Piso , 500 - Vila Guilherme, São Paulo", "coordinates": ["-23.5142421", "-46.6152343"]}, {"id": "cinemark-market-place", "name": "Cinemark Market Place", "url": "https://www.ingresso.com/cinema/cinemark-market-place", "address": "Av. Dr.Chucri Zaidan, 920 - Morumbi, São Paulo", "coordinates": ["-23.6220478", "-46.6997439"]}, {"id": "cinemark-metro-tatuape", "name": "Cinemark Metrô Tatuapé", "url": "https://www.ingresso.com/cinema/cinemark-metro-tatuape", "address": "R. Domingos de Agostim, 91 - Tatuapé, São Paulo", "coordinates": ["-23.5390007", "-46.5758726"]}, {"id": "cinemark-mooca", "name": "Cinemark Móoca", "url": "https://www.ingresso.com/cinema/cinemark-mooca", "address": "Rua Cap Pacheco e Chaves, 313 - Vila Prudente, São Paulo", "coordinates": ["-23.5796652", "-46.5938395"]}, {"id": "cinemark-patio-higienopolis", "name": "Cinemark Pátio Higienópolis", "url": "https://www.ingresso.com/cinema/cinemark-patio-higienopolis", "address": "Av. Higienopolis, 646 - Higienópolis, São Paulo", "coordinates": ["-23.5417986", "-46.6573"]}, {"id": "cinemark-raposo", "name": "Cinemark Raposo", "url": "https://www.ingresso.com/cinema/cinemark-raposo", "address": "Rodovia Raposo Tavares, SN - Jardim Boa Vista, São Paulo", "coordinates": ["-23.5881041", "-46.7510931"]}, {"id": "cinemark-shopping-cidade-sao-paulo", "name": "Cinemark Shopping Cidade São Paulo", "url": "https://www.ingresso.com/cinema/cinemark-shopping-cidade-sao-paulo", "address": "Avenida Paulista, 1230 - Bela Vista, São Paulo", "coordinates": ["-23.5635504", "-46.653085"]}, {"id": "cinemark-shopping-d", "name": "Cinemark Shopping D", "url": "https://www.ingresso.com/cinema/cinemark-shopping-d", "address": "Av. Cruzeiro do Sul, 1100 - Ponte Pequena, São Paulo", "coordinates": ["-23.5214577", "-46.6235706"]}, {"id": "cinemark-shopping-iguatemi-sp", "name": "Cinemark Shopping Iguatemi SP", "url": "https://www.ingresso.com/cinema/cinemark-shopping-iguatemi-sp", "address": "Av Brigadeiro Faria Lima, 2232 - Jardim Paulista, São Paulo", "coordinates": ["-23.5775214", "-46.6876216"]}, {"id": "cinemark-shopping-interlagos", "name": "Cinemark Shopping Interlagos", "url": "https://www.ingresso.com/cinema/cinemark-shopping-interlagos", "address": "Av. Interlagos, 2255 - Vila Inglesa, São Paulo", "coordinates": ["-23.6764", "-46.67825"]}, {"id": "cinemark-shopping-metro-santa-cruz", "name": "Cinemark Shopping Metrô Santa Cruz", "url": "https://www.ingresso.com/cinema/cinemark-shopping-metro-santa-cruz", "address": "R. Domingos de Moraes, 2564 - Vila Mariana, São Paulo", "coordinates": ["-23.5991363", "-46.6371917"]}, {"id": "cinemark-sp-market", "name": "Cinemark SP Market", "url": "https://www.ingresso.com/cinema/cinemark-sp-market", "address": "Av. das Nações Unidas, 22540 - Campo Grande, São Paulo", "coordinates": ["-23.6773783", "-46.6998539"]}, {"id": "cinemark-tiete-plaza", "name": "Cinemark Tietê Plaza", "url": "https://www.ingresso.com/cinema/cinemark-tiete-plaza", "address": "Av. Raimundo Pereira de Magalhães , 1465 - Jardim Iris, São Paulo", "coordinates": ["-23.5065378", "-46.7184782"]}, {"id": "cinemark-tucuruvi", "name": "Cinemark Tucuruvi", "url": "https://www.ingresso.com/cinema/cinemark-tucuruvi", "address": "AV DR ANTONIO MARIA LAET, 566 - Parada Inglesa, São Paulo", "coordinates": ["-23.480657", "-46.6031847"]}, {"id": "cinemark-villa-lobos", "name": "Cinemark Villa Lobos", "url": "https://www.ingresso.com/cinema/cinemark-villa-lobos", "address": "Av. Dra. Ruth Cardoso, 4777 - Lapa, São Paulo", "coordinates": ["-23.5518721", "-46.7219856"]}, {"id": "cinepolis-itaquera", "name": "Cinépolis Itaquera", "url": "https://www.ingresso.com/cinema/cinepolis-itaquera", "address": "Av. José Pinheiro Borges, 0 - Itaquera, São Paulo", "coordinates": ["-23.5402727", "-46.4687481"]}, {"id": "cinepolis-jardim-pamplona", "name": "Cinépolis Jardim Pamplona", "url": "https://www.ingresso.com/cinema/cinepolis-jardim-pamplona", "address": "Rua Pamplona, 1704 - Jardim Paulista, São Paulo", "coordinates": ["-23.5701455", "-46.6612017"]}, {"id": "cinepolis-jk-iguatemi", "name": "Cinépolis JK Iguatemi", "url": "https://www.ingresso.com/cinema/cinepolis-jk-iguatemi", "address": "Av. Presidente Juscelino Kubitschek, 2041 - Vila Nova Conceição, São Paulo", "coordinates": ["-23.5915405", "-46.6892899"]}, {"id": "cinepolis-mais-shopping", "name": "Cinépolis Mais Shopping", "url": "https://www.ingresso.com/cinema/cinepolis-mais-shopping", "address": "Amador Bueno, 219 - Santo Amaro, São Paulo", "coordinates": ["-23.6535233", "-46.7106546"]}, {"id": "cinesystem-frei-caneca", "name": "Cinesystem Frei Caneca", "url": "https://www.ingresso.com/cinema/cinesystem-frei-caneca", "address": "Rua Frei Caneca, 569 - Consolação, São Paulo", "coordinates": ["-23.5538415", "-46.6527645"]}, {"id": "cinesystem-morumbi-town", "name": "Cinesystem Morumbi Town", "url": "https://www.ingresso.com/cinema/cinesystem-morumbi-town", "address": "Avenida Giovanni Gronchi, 5930 - Vila Andrade, São Paulo", "coordinates": ["-23.6319444", "-46.7375"]}, {"id": "cinesystem-pompeia", "name": "Cinesystem Pompéia", "url": "https://www.ingresso.com/cinema/cinesystem-pompeia", "address": "Rua Palestra Itália, 500 - Perdizes, São Paulo", "coordinates": ["-23.5264665", "-46.6810974"]}, {"id": "instituto-moreira-salles-sp", "name": "Instituto Moreira Salles SP", "url": "https://www.ingresso.com/cinema/instituto-moreira-salles-sp", "address": "Av. Paulista, 2424 - Bela Vista, São Paulo", "coordinates": ["-23.5561618", "-46.6620674"]}, {"id": "kinoplex-itaim", "name": "Kinoplex Itaim", "url": "https://www.ingresso.com/cinema/kinoplex-itaim", "address": "R. Joaquim Floriano, 462 - Itaim Bibi, São Paulo", "coordinates": ["-23.5843727", "-46.6752334"]}, {"id": "kinoplex-parque-da-cidade", "name": "Kinoplex Parque da Cidade", "url": "https://www.ingresso.com/cinema/kinoplex-parque-da-cidade", "address": "Avenida das Nações Unidas, 14401 - Chácara Santo Antônio (Zona Sul), São Paulo", "coordinates": ["-23.6258479", "-46.7058781"]}, {"id": "kinoplex-vila-olimpia", "name": "Kinoplex Vila Olímpia", "url": "https://www.ingresso.com/cinema/kinoplex-vila-olimpia", "address": "Rua Olimpiadas, 360 - Vila Olímpia, São Paulo", "coordinates": ["-23.5956021", "-46.6866931"]}, {"id": "moviecom-boavista", "name": "Moviecom BoaVista", "url": "https://www.ingresso.com/cinema/moviecom-boavista", "address": "R. Borba Gato, 59 - Santo Amaro, São Paulo", "coordinates": ["-23.6546129", "-46.700758"]}, {"id": "moviecom-penha", "name": "Moviecom Penha", "url": "https://www.ingresso.com/cinema/moviecom-penha", "address": "R. Dr. João Ribeiro , 304 - Penha, São Paulo", "coordinates": ["-23.5253355", "-46.5474179"]}, {"id": "playarte-multiplex-ibirapuera", "name": "PlayArte Multiplex - Ibirapuera", "url": "https://www.ingresso.com/cinema/playarte-multiplex-ibirapuera", "address": "Av. Ibirapuera, 3103 - Indianópolis, São Paulo", "coordinates": ["-23.6102855", "-46.6668644"]}, {"id": "playarte-multiplex-maraba", "name": "Playarte Multiplex Marabá", "url": "https://www.ingresso.com/cinema/playarte-multiplex-maraba", "address": "Av. Ipiranga, 757 - são joão, São Paulo", "coordinates": ["-23.5426018", "-46.6409035"]}, {"id": "sato-cinema", "name": "Sato Cinema", "url": "https://www.ingresso.com/cinema/sato-cinema", "address": "Rua São Joaquim, 381 - Liberdade, São Paulo", "coordinates": ["-23.5612483", "-46.6351323"]}, {"id": "uci-analia-franco", "name": "UCI Anália Franco", "url": "https://www.ingresso.com/cinema/uci-analia-franco", "address": "Av. Regente Feijó, 1759 - Tatuapé, São Paulo", "coordinates": ["-23.5618539", "-46.559551"]}, {"id": "uci-jardim-sul", "name": "UCI Jardim Sul", "url": "https://www.ingresso.com/cinema/uci-jardim-sul", "address": "Av. Giovanni Gronchi, 5819 - Vila Andrade, São Paulo", "coordinates": ["-23.6310352", "-46.7359322"]}, {"id": "uci-plaza-sul", "name": "UCI Plaza Sul", "url": "https://www.ingresso.com/cinema/uci-plaza-sul", "address": "Praça Leonor Kaupa, 100 - Bosque da Saúde, São Paulo", "coordinates": ["-23.6198179", "-46.6268084"]}, {"id": "uci-santana", "name": "UCI Santana", "url": "https://www.ingresso.com/cinema/uci-santana", "address": "Rua Conselheiro Moreira de Barros, 2780 - Lauzane Paulista, São Paulo", "coordinates": ["-23.4830556", "-46.645"]}]
